{"radius":100,"blocs":[{"id":0,"name":"NORAM","colorHex":"#ff4d4d"},{"id":1,"name":"SOUTHAM","colorHex":"#ff8a3c"},{"id":2,"name":"EURO","colorHex":"#3a82ff"},{"id":3,"name":"AFRIKA","colorHex":"#24d39a"},{"id":4,"name":"EURASIA","colorHex":"#b06bff"},{"id":5,"name":"ASIA","colorHex":"#ffd23c"},{"id":6,"name":"OCEANIA","colorHex":"#2fd0e0"},{"id":7,"name":"ANTARCTICA","colorHex":"#cfe9f5"}],"cities":[{"id":0,"blocId":0,"name":"NEW YORK","lat":40.71,"lon":-74,"colorHex":"#ff4d4d"},{"id":1,"blocId":0,"name":"LOS ANGELES","lat":34.05,"lon":-118.24,"colorHex":"#ff4d4d"},{"id":2,"blocId":0,"name":"CHICAGO","lat":41.88,"lon":-87.63,"colorHex":"#ff4d4d"},{"id":3,"blocId":0,"name":"MEXICO CITY","lat":19.43,"lon":-99.13,"colorHex":"#ff4d4d"},{"id":4,"blocId":1,"name":"SAO PAULO","lat":-23.55,"lon":-46.63,"colorHex":"#ff8a3c"},{"id":5,"blocId":1,"name":"BUENOS AIRES","lat":-34.6,"lon":-58.38,"colorHex":"#ff8a3c"},{"id":6,"blocId":1,"name":"BOGOTA","lat":4.71,"lon":-74.07,"colorHex":"#ff8a3c"},{"id":7,"blocId":1,"name":"LIMA","lat":-12.05,"lon":-77.04,"colorHex":"#ff8a3c"},{"id":8,"blocId":2,"name":"LONDON","lat":51.51,"lon":-0.13,"colorHex":"#3a82ff"},{"id":9,"blocId":2,"name":"PARIS","lat":48.86,"lon":2.35,"colorHex":"#3a82ff"},{"id":10,"blocId":2,"name":"BERLIN","lat":52.52,"lon":13.4,"colorHex":"#3a82ff"},{"id":11,"blocId":2,"name":"MADRID","lat":40.42,"lon":-3.7,"colorHex":"#3a82ff"},{"id":12,"blocId":2,"name":"CAIRO","lat":30.04,"lon":31.24,"colorHex":"#3a82ff"},{"id":13,"blocId":3,"name":"LAGOS","lat":6.52,"lon":3.38,"colorHex":"#24d39a"},{"id":14,"blocId":3,"name":"JOHANNESBURG","lat":-26.2,"lon":28.04,"colorHex":"#24d39a"},{"id":15,"blocId":3,"name":"NAIROBI","lat":-1.29,"lon":36.82,"colorHex":"#24d39a"},{"id":16,"blocId":2,"name":"MOSCOW","lat":55.75,"lon":37.62,"colorHex":"#3a82ff"},{"id":17,"blocId":4,"name":"NOVOSIBIRSK","lat":55.03,"lon":82.92,"colorHex":"#b06bff"},{"id":18,"blocId":4,"name":"ASTANA","lat":51.13,"lon":71.43,"colorHex":"#b06bff"},{"id":19,"blocId":2,"name":"KYIV","lat":50.45,"lon":30.52,"colorHex":"#3a82ff"},{"id":20,"blocId":5,"name":"BEIJING","lat":39.9,"lon":116.41,"colorHex":"#ffd23c"},{"id":21,"blocId":5,"name":"TOKYO","lat":35.69,"lon":139.69,"colorHex":"#ffd23c"},{"id":22,"blocId":5,"name":"DELHI","lat":28.61,"lon":77.21,"colorHex":"#ffd23c"},{"id":23,"blocId":5,"name":"SHANGHAI","lat":31.23,"lon":121.47,"colorHex":"#ffd23c"},{"id":24,"blocId":5,"name":"MUMBAI","lat":19.08,"lon":72.88,"colorHex":"#ffd23c"},{"id":25,"blocId":5,"name":"SEOUL","lat":37.57,"lon":126.98,"colorHex":"#ffd23c"},{"id":26,"blocId":5,"name":"BANGKOK","lat":13.75,"lon":100.5,"colorHex":"#ffd23c"},{"id":27,"blocId":6,"name":"SYDNEY","lat":-33.87,"lon":151.21,"colorHex":"#2fd0e0"},{"id":28,"blocId":6,"name":"MELBOURNE","lat":-37.81,"lon":144.96,"colorHex":"#2fd0e0"},{"id":29,"blocId":6,"name":"AUCKLAND","lat":-36.85,"lon":174.76,"colorHex":"#2fd0e0"},{"id":30,"blocId":5,"name":"JAKARTA","lat":-6.21,"lon":106.85,"colorHex":"#ffd23c"}]}